wikidata_id,name,latitude,longitude,administrative_division,nuts_code,toid
,=== Abbots Langley (1 položek) ===,,,Abbots Langley,,
Q19174,Bedmond,51.721666666,-0.410555555,Abbots Langley,,4000000074553162
,=== Aberdeen City (1 položek) ===,,,Aberdeen City,,
Q36405,Aberdeen,57.15,-2.1,Aberdeen City,GB-ABE,4000000074560731
,=== Aberdeenshire (6 položek) ===,,,Aberdeenshire,,
Q3979,Brideswell,57.4411,-2.70028,Aberdeenshire,,4000000074562324
Q206547,Pennan,57.679,-2.261,Aberdeenshire,,4000000074561960
Q3981,Rothienorman,57.410833333,-2.464444444,Aberdeenshire,,4000000074561151
Q3984,Ruthven,57.5081,-2.81278,Aberdeenshire,,4000000074562726
Q3982,Strathdon,57.1996,-3.07574,Aberdeenshire,,4000000074560955
,=== Adur (4 položek) ===,,,Adur,,
Q511380,Coombes,50.863,-0.308,Adur,,4000000074572436; 7000000000016239
,=== Aintree Village (2 položek) ===,,,Aintree Village,,
Q406146,Aintree,53.4793,-2.9373,Aintree Village,,4000000074560937
,=== Albrighton and Donington (1 položek) ===,,,Albrighton and Donington,,
Q578454,Donington,52.643,-2.285,Albrighton and Donington,,7000000000009328
,=== Aldbrough (3 položek) ===,,,Aldbrough,,
Q592275,Tansterne,53.8196,-0.145826,Aldbrough,,
,=== Allerdale (2 položek) ===,,,Allerdale,,
Q570839,Greysouthen,54.648,-3.441,Allerdale,,4000000074549571; 7000000000013218
,=== Almondsbury (3 položek) ===,,,Almondsbury,,
Q592667,Easter Compton,51.5333,-2.61667,Almondsbury,,4000000074570822
,=== Ancroft (1 položek) ===,,,Ancroft,,
Q595470,Ancroft Northmoor,55.703,-2.06,Ancroft,,
,=== Angus (4 položek) ===,,,Angus,,
Q513803,Balmirmer,56.5393,-2.68618,Angus,,
Q203953,Douglastown,56.6139,-2.95149,Angus,,4000000074556166
,=== Appleton (1 položek) ===,,,Appleton,,
Q621563,Appleton Thorn,53.3508,-2.5441,Appleton,,4000000074556619
,=== Ards (3 položek) ===,,,Ards,,
Q116772,Ballygowan,54.5,-5.8,Ards,,
Q135444,Millisle,54.608,-5.529,Ards,,
,=== Ards and North Down (6 položek) ===,,,Ards and North Down,,
Q149569,Ballywalter,54.542,-5.48,Ards and North Down,,
Q806551,Bangor,54.66,-5.67,Ards and North Down,,
Q116767,Crawfordsburn,54.65,-5.733,Ards and North Down,,
Q135047,Groomsport,54.667,-5.617,Ards and North Down,,
,=== Argyll and Bute (22 položek) ===,,,Argyll and Bute,,
Q211904,Arden,56.02,-4.63,Argyll and Bute,,4000000074553002
Q212088,Cardross,55.9667,-4.63333,Argyll and Bute,,4000000074813571
Q247920,Clynder,56.0167,-4.81667,Argyll and Bute,,4000000074553365
Q211892,Kilcreggan,55.985,-4.82601,Argyll and Bute,,4000000074548487
Q499893,Muasdale,55.6001,-5.68461,Argyll and Bute,,4000000074578977
Q248076,Port Bannatyne,55.86,-5.08,Argyll and Bute,,4000000074551478
Q219427,Rhu,56.0219,-4.78417,Argyll and Bute,,4000000074553364
Q213377,Rosneath,56.011,-4.80249,Argyll and Bute,,4000000074553363
Q219509,Saddell,55.5314,-5.51111,Argyll and Bute,,4000000074551219
Q496395,Skipness,55.7669,-5.345,Argyll and Bute,,4000000074552721
Q596798,Tarbet,56.203,-4.717,Argyll and Bute,,4000000074548283
Q212090,Tayinloan,55.6572,-5.66472,Argyll and Bute,,4000000074551959
Q499886,Taynuilt,56.433055555,-5.2325,Argyll and Bute,,4000000074550144
,"=== Armagh City, Banbridge and Craigavon (5 položek) ===",,,"Armagh City, Banbridge and Craigavon",,
Q193452,Armagh,54.349444,-6.654444,"Armagh City, Banbridge and Craigavon",,
Q149564,Loughbrickland,54.316,-6.304,"Armagh City, Banbridge and Craigavon",,
Q149559,Waringstown,54.4336,-6.299,"Armagh City, Banbridge and Craigavon",,
,=== Ashover (1 položek) ===,,,Ashover,,
Q602321,Alton,53.174,-1.46,Ashover,,4000000074549813
,=== Babergh (8 položek) ===,,,Babergh,,
Q261791,Acton,52.070711111,0.761019444,Babergh,,4000000074558941; 7000000000015755
Q430326,Brent Eleigh,52.1,0.833,Babergh,,4000000074557355; 7000000000015733
Q541183,Polstead,52.007,0.902,Babergh,,4000000074558934; 7000000000015569
,=== Ballymaguigan (1 položek) ===,,,Ballymaguigan,,
Q574880,Ballymaguigan,54.7399,-6.52481,Ballymaguigan,,
,=== Banbridge (2 položek) ===,,,Banbridge,,
Q170129,Corbet,54.3333,-6.2,Banbridge,,
,=== Bath and North East Somerset (3 položek) ===,,,Bath and North East Somerset,,
Q22889,Bath,51.381388888,-2.359722222,Bath and North East Somerset,,4000000074572822
Q596347,Chewton Keynsham,51.3955,-2.4995,Bath and North East Somerset,,4000000074573499
,=== Bedford (4 položek) ===,,,Bedford,,
Q406914,Thurleigh,52.2147,-0.457835,Bedford,,4000000074578018; 7000000000001106
,=== Belfast (1 položek) ===,,,Belfast,,
Q10686,Belfast,54.596666666,-5.93,Belfast,,
,=== Birmingham (1 položek) ===,,,Birmingham,,
Q2256,Birmingham,52.48,-1.9025,Birmingham,,4000000074540884
,=== Bolsover (4 položek) ===,,,Bolsover,,
Q569245,South Normanton,53.107,-1.343,Bolsover,,4000000074548683; 7000000000013351
,"=== Bournemouth, Christchurch and Poole (1 položek) ===",,,"Bournemouth, Christchurch and Poole",,
Q579935,Stanpit,50.729166666,-1.754444444,"Bournemouth, Christchurch and Poole",,4000000074549529
,=== Braceby and Sapperton (2 položek) ===,,,Braceby and Sapperton,,
Q567841,Sapperton,52.8932,-0.485774,Braceby and Sapperton,,4000000074548786
,=== Bradford (5 položek) ===,,,Bradford,,
Q22905,Bradford,53.794,-1.751,Bradford,,4000000074540943
Q602055,Menston,53.8912,-1.7344,Bradford,,4000000074569898; 7000000000016695
,=== Braintree (8 položek) ===,,,Braintree,,
Q304813,Foxearth,52.0725,0.6742,Braintree,,4000000074559567; 7000000000019875
Q577480,Helions Bumpstead,52.0482,0.4052,Braintree,,4000000074329155; 7000000000020102
Q547689,White Colne,51.936,0.726,Braintree,,4000000074557015; 7000000000019835
,=== Brighstone (2 položek) ===,,,Brighstone,,
Q570823,Brook,50.6525,-1.45135,Brighstone,,4000000074316130
,=== British overseas territory (1 položek) ===,,,British overseas territory,,
Q1410,Gibraltar,36.14,-5.35,British overseas territory,,
,=== Broadland (4 položek) ===,,,Broadland,,
Q589226,Drayton,52.675,1.225,Broadland,,4000000074573565; 7000000000006806
Q577859,Wood Dalling,52.800088888,1.097361111,Broadland,,4000000074580207; 7000000000006644
,=== Brockdish (1 položek) ===,,,Brockdish,,
Q577218,Thorpe Abbotts,52.3718,1.2212,Brockdish,,4000000074545963
,=== Bromsgrove (4 položek) ===,,,Bromsgrove,,
Q582689,Barnt Green,52.36,-1.999,Bromsgrove,,4000000074340788; 7000000000003191
,=== Broughton West (2 položek) ===,,,Broughton West,,
Q431994,Foxfield,54.2667,-3.21667,Broughton West,,4000000074560170
,=== Bubwith (1 položek) ===,,,Bubwith,,
Q74,Breighton,53.796883333,-0.924147222,Bubwith,,4000000074544200
,=== Buckinghamshire (16 položek) ===,,,Buckinghamshire,,
Q548588,Cheddington,51.847,-0.664,Buckinghamshire,,4000000074546864; 7000000000011829
Q589687,Chenies,51.675,-0.532,Buckinghamshire,,4000000074562333; 7000000000011680
Q592123,Medmenham,51.554,-0.838,Buckinghamshire,,4000000074568227; 7000000000011854
Q302613,Stoke Poges,51.546,-0.584,Buckinghamshire,,4000000074564965; 7000000000011696
Q628619,Turweston,52.0347,-1.1246,Buckinghamshire,,4000000074545722; 7000000000012089
,=== Buckland Monachorum (1 položek) ===,,,Buckland Monachorum,,
Q540088,Yelverton,50.492,-4.086,Buckland Monachorum,,4000000074554402
,=== Burlescombe (1 položek) ===,,,Burlescombe,,
Q585075,Appledore,50.9206,-3.3302,Burlescombe,,4000000074576686
,=== Caddington (2 položek) ===,,,Caddington,,
Q547343,Aley Green,51.854,-0.452,Caddington,,4000000074550968
,=== Cambridge (1 položek) ===,,,Cambridge,,
Q350,Cambridge,52.208055555,0.1225,Cambridge,,4000000074577087
,=== Canterbury (1 položek) ===,,,Canterbury,,
Q29303,Canterbury,51.278333333,1.0775,Canterbury,,4000000074565139
,=== Cardiff (1 položek) ===,,,Cardiff,,
Q10690,Cardiff,51.481666666,-3.179166666,Cardiff,,4000000074554911
,=== Carlisle (1 položek) ===,,,Carlisle,,
Q192896,Carlisle,54.894722222,-2.936388888,Carlisle,,4000000074551822
,=== Castleboy (2 položek) ===,,,Castleboy,,
Q170271,Cloghy,54.4167,-5.46667,Castleboy,,
,=== Causeway Coast and Glens (1 položek) ===,,,Causeway Coast and Glens,,
Q575071,Ballykelly,55.0445,-7.01576,Causeway Coast and Glens,,
,=== Central Bedfordshire (3 položek) ===,,,Central Bedfordshire,,
Q304034,Beeston,52.119,-0.295,Central Bedfordshire,,4000000074570509
Q581929,Tilsworth,51.9096,-0.5783,Central Bedfordshire,,4000000074548141; 7000000000001022
,=== Chelmsford (1 položek) ===,,,Chelmsford,,
Q210985,Chelmsford,51.7361,0.4798,Chelmsford,,4000000074541699
,=== Cherwell (4 položek) ===,,,Cherwell,,
Q305230,Mixbury,52.004,-1.114,Cherwell,,4000000074547431; 7000000000008508
Q305375,Noke,51.814,-1.213,Cherwell,,4000000074546904; 7000000000008463
,=== Cheshire East (1 položek) ===,,,Cheshire East,,
Q601231,Barnett Brook,52.99,-2.56,Cheshire East,,4000000074323258
,=== Cheshire West and Chester (3 položek) ===,,,Cheshire West and Chester,,
Q170263,Chester,53.2,-2.883333333,Cheshire West and Chester,,4000000074556976
Q585161,Upton-by-Chester,53.214,-2.884,Cheshire West and Chester,,4000000074555890; 7000000000012636
,=== Chichester (8 položek) ===,,,Chichester,,
Q549078,Boxgrove,50.859280555,-0.712661111,Chichester,,4000000074562496; 7000000000016434
Q207639,Chichester,50.8365,-0.7792,Chichester,,4000000074562679; 7000000000016518
,=== Chirbury with Brompton (2 položek) ===,,,Chirbury with Brompton,,
Q547050,Priestweston,52.5715,-3.05051,Chirbury with Brompton,,4000000074563004
,=== Chislet (2 položek) ===,,,Chislet,,
Q590895,Upstreet,51.3242,1.1978,Chislet,,4000000074566825
,=== Choppington (1 položek) ===,,,Choppington,,
Q576423,Stakeford,55.163,-1.586,Choppington,,4000000074556926
,=== City of Bristol (1 položek) ===,,,City of Bristol,,
Q23154,Bristol,51.453611111,-2.5975,City of Bristol,,4000000074573839
,=== City of Derby (1 položek) ===,,,City of Derby,,
Q43475,Derby,52.921666666,-1.476666666,City of Derby,,4000000074550123
,=== City of Edinburgh (2 položek) ===,,,City of Edinburgh,,
Q23436,Edinburgh,55.953333333,-3.189166666,City of Edinburgh,GB-EDH,4000000074558316
Q239193,Kirkliston,55.95,-3.4,City of Edinburgh,,4000000074559809
,=== City of Kingston upon Hull (1 položek) ===,,,City of Kingston upon Hull,,
Q128147,Kingston upon Hull,53.744444444,-0.3325,City of Kingston upon Hull,,4000000074542156
,=== City of Leicester (1 položek) ===,,,City of Leicester,,
Q83065,Leicester,52.636111111,-1.133055555,City of Leicester,,4000000074560267
,=== City of Milton Keynes (1 položek) ===,,,City of Milton Keynes,,
Q204234,Milton Keynes,52.033333333,-0.766666666,City of Milton Keynes,,4000000074547175
,=== City of Nottingham (1 položek) ===,,,City of Nottingham,,
Q41262,Nottingham,52.955,-1.149166666,City of Nottingham,,4000000074563302
,=== City of Peterborough (1 položek) ===,,,City of Peterborough,,
Q172438,Peterborough,52.5725,-0.243055555,City of Peterborough,,4000000074550599
,=== City of Plymouth (2 položek) ===,,,City of Plymouth,,
Q43382,Plymouth,50.371388888,-4.142222222,City of Plymouth,,4000000074555542
Q113365,Tamerton Foliot,50.427919444,-4.15825,City of Plymouth,,4000000074558078
,=== City of Portsmouth (1 položek) ===,,,City of Portsmouth,,
Q72259,Portsmouth,50.805833333,-1.087222222,City of Portsmouth,,4000000074562880
,=== City of Southampton (1 položek) ===,,,City of Southampton,,
Q79848,Southampton,50.906666666,-1.404444444,City of Southampton,,4000000074564709
,=== City of Stoke-on-Trent (1 položek) ===,,,City of Stoke-on-Trent,,
Q134902,Stoke-on-Trent,53.0,-2.183333333,City of Stoke-on-Trent,,4000000074575785
,=== City of Wolverhampton (1 položek) ===,,,City of Wolverhampton,,
Q126269,Wolverhampton,52.584166666,-2.125277777,City of Wolverhampton,,4000000074561827
,=== City of York (1 položek) ===,,,City of York,,
Q42462,York,53.95,-1.083333333,City of York,,4000000074557107
,=== Colchester (1 položek) ===,,,Colchester,,
Q184163,Colchester,51.888611,0.903611,Colchester,,4000000074559170
,=== Coniston (1 položek) ===,,,Coniston,,
Q544903,Bowmanstead,54.35,-3.09,Coniston,,4000000074562808
,=== Copeland (2 položek) ===,,,Copeland,,
Q583782,Lowca,54.583333333,-3.583333333,Copeland,,4000000074563449; 7000000000013163
,=== Cornwall (26 položek) ===,,,Cornwall,,
Q517315,Altarnun,50.590425874,-4.53926602,Cornwall,,4000000074558165; 7000000000024295
Q114530,Ludgvan,50.144,-5.495,Cornwall,,4000000074574832; 7000000000024431
Q305008,Morvah,50.161,-5.639,Cornwall,,4000000074578214; 7000000000024472
Q202331,Portreath,50.261,-5.288,Cornwall,,4000000074574834; 7000000000024397
Q597094,Skewjack,50.065,-5.682,Cornwall,,
Q516902,St Teath,50.593,-4.736,Cornwall,,4000000074558170; 7000000000024556
Q180803,Truro,50.26,-5.051,Cornwall,,4000000074574269; 7000000000024348
Q189654,Zennor,50.192,-5.568,Cornwall,,4000000074575677; 7000000000024476
,=== Cotswold (2 položek) ===,,,Cotswold,,
Q577807,Adlestrop,51.9443,-1.65,Cotswold,,4000000074565937; 7000000000020156
,=== County Antrim (1 položek) ===,,,County Antrim,,
Q574848,Ballyrashane,55.142,-6.605,County Antrim,,
,=== County Borough of Sunderland (1 položek) ===,,,County Borough of Sunderland,,
Q188304,Sunderland,54.9,-1.380277777,County Borough of Sunderland,,4000000074553839
,=== County Down (33 položek) ===,,,County Down,,
Q149542,Annahilt,54.4376,-6.00197,County Down,,
Q116416,Ballynahatty,54.5422,-5.95667,County Down,,
Q116618,Ballyskeagh,54.5339,-6.00528,County Down,,
Q116618,Ballyskeagh,54.534814,-6.002611,County Down,,
Q170133,Clough,54.289,-5.835,County Down,,
Q149555,Drumbeg,54.529934,-5.990562,County Down,,
Q149555,Drumbeg,54.5342,-5.98528,County Down,,
Q205313,Drumbo,54.516,-5.959,County Down,,
Q135049,Greyabbey,54.535,-5.56,County Down,,
Q205207,Helen's Bay,54.67,-5.735,County Down,,
Q232723,Hilltown,54.194,-6.144,County Down,,
Q205098,Kilcoo,54.2167,-6.03333,County Down,,
Q170278,Killough,54.25068,-5.64081,County Down,,
Q233539,Killyleagh,54.4,-5.65,County Down,,
Q170141,Loughinisland,54.338055555,-5.823055555,County Down,,
Q149546,Moira,54.48,-6.232,County Down,,
Q135041,Scarva,54.3317,-6.3646,County Down,,
Q149551,Seahill,54.6336,-5.53528,County Down,,
Q149532,Strangford,54.3707,-5.55547,County Down,,
,=== County Durham (2 položek) ===,,,County Durham,,
Q179815,Durham,54.783333333,-1.566666666,County Durham,,4000000074559702
Q603985,Ebchester,54.883333333,-1.833333333,County Durham,,4000000074575925
,=== County Londonderry (5 položek) ===,,,County Londonderry,,
Q574915,Articlave,55.1333,-6.76667,County Londonderry,,
Q574901,Ballyronan,54.709,-6.532,County Londonderry,,
Q619264,Castlerock,55.15,-6.783333333,County Londonderry,,
Q482376,Upperlands,54.877,-6.64372,County Londonderry,,
,=== Coventry (1 položek) ===,,,Coventry,,
Q6225,Coventry,52.416666666,-1.516666666,Coventry,,4000000074568994
,=== Craven (7 položek) ===,,,Craven,,
Q553810,Airton,54.028911111,-2.149580555,Craven,,4000000074568267; 7000000000021860
Q93671,Burnsall,54.049588888,-1.953069444,Craven,,7000000000021842
Q600342,Hellifield,54.0045,-2.2215,Craven,,4000000074564029; 7000000000021870
,=== Cumberland (3 položek) ===,,,Cumberland,,
Q192896,Carlisle,54.894722222,-2.936388888,Cumberland,,4000000074551822
Q598303,Westlinton,54.971,-2.948,Cumberland,,4000000074550329; 7000000000013130
,=== Dacorum (2 položek) ===,,,Dacorum,,
Q546163,Aldbury,51.8,-0.6,Dacorum,,4000000074546623; 7000000000004010
,=== Darlington (4 položek) ===,,,Darlington,,
Q547014,Killerby,54.575,-1.703,Darlington,,4000000074557816; 7000000000002426
,=== Derbyshire Dales (4 položek) ===,,,Derbyshire Dales,,
Q569865,Marston Montgomery,52.9374,-1.8006,Derbyshire Dales,,4000000074551264; 7000000000013570
,=== Derry City and Strabane (1 položek) ===,,,Derry City and Strabane,,
Q163584,Derry,54.991666666,-7.341666666,Derry City and Strabane,,
,=== Doncaster (3 položek) ===,,,Doncaster,,
Q58900,Doncaster,53.522777777,-1.1325,Doncaster,,4000000074574343
Q598000,Fenwick,53.636111111,-1.1,Doncaster,,4000000074547076; 7000000000009160
,=== Dorset (18 položek) ===,,,Dorset,,
Q539724,Cerne Abbas,50.8095,-2.481,Dorset,,4000000074553010; 7000000000014626
Q528437,Hazelbury Bryan,50.8789,-2.3632,Dorset,,4000000074553379; 7000000000014535
Q597734,Kimmeridge,50.617,-2.118,Dorset,,4000000074553048; 7000000000014367
Q302200,Langton Herring,50.64075,-2.546769444,Dorset,,4000000074549307; 7000000000014524
Q572416,Lytchett Matravers,50.756,-2.07,Dorset,,4000000074551525; 7000000000014575
Q570388,Mappowder,50.853,-2.378,Dorset,,4000000074552248; 7000000000014538
Q582068,Okeford Fitzpaine,50.8971,-2.2756,Dorset,,4000000074553368; 7000000000014547
Q578322,Winterborne Whitechurch,50.8,-2.233333333,Dorset,,4000000074551481; 7000000000014452
,=== Dover (2 položek) ===,,,Dover,,
Q578630,Alkham,51.1347,1.2211,Dover,,4000000074566727; 7000000000017980
,=== Downholland (1 položek) ===,,,Downholland,,
Q582056,Haskayne,53.565,-2.968,Downholland,,4000000074578315
,=== Drighlington (1 položek) ===,,,Drighlington,,
Q602899,Adwalton,53.7514,-1.65454,Drighlington,,4000000074572335
,=== Dumfries and Galloway (2 položek) ===,,,Dumfries and Galloway,,
Q489551,Twynholm,54.8646,-4.08328,Dumfries and Galloway,,4000000074566006
,=== Dundee City (1 položek) ===,,,Dundee City,,
Q123709,Dundee,56.460555555,-2.97,Dundee City,,4000000074556889
,=== East Ayrshire (2 položek) ===,,,East Ayrshire,,
Q205448,Kilmaurs,55.6394,-4.53028,East Ayrshire,,4000000074570061
,=== East Cambridgeshire (4 položek) ===,,,East Cambridgeshire,,
Q209176,Ely,52.398055555,0.262222222,East Cambridgeshire,,4000000074578730; 7000000000001223
,=== East Hampshire (6 položek) ===,,,East Hampshire,,
Q499351,Bentley,51.194011111,-0.877561111,East Hampshire,,4000000074561930; 7000000000017894
Q428424,East Worldham,51.137,-0.93247,East Hampshire,,4000000074565828
,=== East Hertfordshire (6 položek) ===,,,East Hertfordshire,,
Q591902,Benington,51.8962,-0.1126,East Hertfordshire,,4000000074570581; 7000000000003754
,=== East Lindsey (10 položek) ===,,,East Lindsey,,
Q579769,Asterby,53.2966,-0.104675,East Lindsey,,4000000074549887; 7000000000005377
Q582157,Hainton,53.3429,-0.223086,East Lindsey,,4000000074554050; 7000000000005475
Q628593,Low Toynton,53.2195,-0.090706,East Lindsey,,4000000074553680; 7000000000005429
Q305370,North Ormsby,53.4218,-0.06227,East Lindsey,,4000000074552110; 7000000000005239
,=== East Riding of Yorkshire (12 položek) ===,,,East Riding of Yorkshire,,
Q426193,Bishop Wilton,53.985858333,-0.785958333,East Riding of Yorkshire,,4000000074557476; 7000000000004528
Q605241,Grindale,54.1251,-0.269097222,East Riding of Yorkshire,,4000000074571052
Q152145,Hayton,53.90185,-0.754072222,East Riding of Yorkshire,,4000000074544467; 7000000000004487
Q576488,Nunburnholme,53.921852777,-0.707719444,East Riding of Yorkshire,,4000000074543646; 7000000000004488
Q588718,Woodmansey,53.826711111,-0.398419444,East Riding of Yorkshire,,7000000000004260
,=== East Suffolk (12 položek) ===,,,East Suffolk,,
Q188020,Dunwich,52.2775,1.631111111,East Suffolk,,4000000074544280; 7000000000015199
Q550253,Hemley,52.0323,1.33,East Suffolk,,4000000074543715; 7000000000015246
Q304218,Kessingland,52.419,1.723,East Suffolk,,4000000074545949; 7000000000015370
Q599291,Ringsfield,52.43,1.52,East Suffolk,,4000000074545671; 7000000000015451
,=== East Sussex (2 položek) ===,,,East Sussex,,
Q1022488,Brighton and Hove,50.827777777,-0.152777777,East Sussex,GB-BNH,4000000074570696; 7000000000036749
,=== Ebberston and Yedingham (2 položek) ===,,,Ebberston and Yedingham,,
Q430847,Yedingham,54.2035,-0.632636,Ebberston and Yedingham,,4000000074554876
,=== Eden (2 položek) ===,,,Eden,,
Q532424,Morland,54.595,-2.62,Eden,,4000000074546310; 7000000000012726
,=== Elham (2 položek) ===,,,Elham,,
Q601716,Wingmore,51.1763,1.1291,Elham,,4000000074567032
,=== Ellel (1 položek) ===,,,Ellel,,
Q117813,Galgate,53.993,-2.784,Ellel,,4000000074561618
,=== Ellington and Linton (1 položek) ===,,,Ellington and Linton,,
Q594221,Ellington,55.2209,-1.5621,Ellington and Linton,,4000000074557285
,=== Exeter (1 položek) ===,,,Exeter,,
Q134672,Exeter,50.725555555,-3.526944444,Exeter,,4000000074556577
,=== Featherstone (2 položek) ===,,,Featherstone,,
Q570367,Ackton,53.6921,-1.37602,Featherstone,,4000000074570879
,=== Fenland (2 položek) ===,,,Fenland,,
Q546711,Wimblington,52.5,0.08,Fenland,,4000000074576601; 7000000000001662
,=== Fife (2 položek) ===,,,Fife,,
Q571601,Dairsie,56.3453,-2.95,Fife,,4000000074543454
Q211950,Dunfermline,56.071388888,-3.461666666,Fife,,4000000074558327
,=== Fimber (1 položek) ===,,,Fimber,,
Q586039,Towthorpe,54.0542,-0.624789,Fimber,,4000000074558595
,=== Forest of Dean (1 položek) ===,,,Forest of Dean,,
Q579166,Ruardean Woodside,51.847,-2.5422,Forest of Dean,,4000000074578389
,=== Glasgow City (1 položek) ===,,,Glasgow City,,
Q4093,Glasgow,55.861111111,-4.25,Glasgow City,GB-GLG,4000000074580391
,=== Gloucester (1 položek) ===,,,Gloucester,,
Q170497,Gloucester,51.865277777,-2.245833333,Gloucester,,4000000074577905
,=== Great Yarmouth (2 položek) ===,,,Great Yarmouth,,
Q594592,Fleggburgh,52.668519444,1.614711111,Great Yarmouth,,4000000074573244; 7000000000006497
,=== Greater London (2 položek) ===,,,Greater London,,
Q179351,City of Westminster,51.4975,-0.137222222,Greater London,GB-WSM,7000000000011164
Q84,London,51.507222222,-0.1275,Greater London,GB-LND,4000000074813508
,=== Gwynedd (3 položek) ===,,,Gwynedd,,
Q234178,Bangor,53.228,-4.128,Gwynedd,,4000000074564164; 7000000000020777
Q302496,Carmel,53.070833333,-4.249722222,Gwynedd,,4000000074565704
,=== Hambleton (12 položek) ===,,,Hambleton,,
Q259967,Beningbrough,54.013013888,-1.193697222,Hambleton,,4000000074558226; 7000000000021394
Q601124,Streetlam,54.3851,-1.52287,Hambleton,,4000000074547537
Q251914,Thornton-le-Beans,54.308411111,-1.390469444,Hambleton,,4000000074547526; 7000000000021757
Q590749,Thornton-on-the-Hill,54.160019444,-1.185869444,Hambleton,,7000000000021443
Q596401,Whenby,54.1203,-1.036761111,Hambleton,,4000000074559358; 7000000000021266
,=== Harrogate (2 položek) ===,,,Harrogate,,
Q601608,Tockwith,53.9651,-1.2869,Harrogate,,4000000074547456; 7000000000021427
,=== Hawkley (1 položek) ===,,,Hawkley,,
Q596894,Empshott,51.076,-0.927,Hawkley,,4000000074563257
,=== Headley (1 položek) ===,,,Headley,,
Q603844,Headley Down,51.1189,-0.79943,Headley,,4000000074563262
,=== Healeyfield (2 položek) ===,,,Healeyfield,,
Q569922,Castleside,54.833,-1.879,Healeyfield,,4000000074554493
,=== Herefordshire (14 položek) ===,,,Herefordshire,,
Q261874,Aconbury,51.998,-2.706,Herefordshire,,4000000074813676; 7000000000003613
Q597899,Ballingham,51.982,-2.621,Herefordshire,,4000000074579592; 7000000000003396
Q262514,Brilley,52.136,-3.081,Herefordshire,,4000000074322313; 7000000000003542
Q204720,Hereford,52.056388888,-2.716111111,Herefordshire,,4000000074579014; 7000000000041561
Q512408,Kingstone,52.015555555,-2.841666666,Herefordshire,,4000000074579879; 7000000000003472
Q600872,Thruxton,52.007,-2.82,Herefordshire,,4000000074579759; 7000000000003473
,=== Highland (3 položek) ===,,,Highland,,
Q160493,Inverness,57.483888888,-4.225833333,Highland,,4000000074558240
Q515476,Uig,57.58,-6.36,Highland,,4000000074570269
,=== Hinckley and Bosworth (2 položek) ===,,,Hinckley and Bosworth,,
Q580423,Shackerstone,52.657222222,-1.449444444,Hinckley and Bosworth,,4000000074549736; 7000000000023653
,=== Holme East Waver (1 položek) ===,,,Holme East Waver,,
Q550013,Newton Arlosh,54.8667,-3.25,Holme East Waver,,4000000074551450
,=== Hordley (1 položek) ===,,,Hordley,,
Q579721,Bagley,52.83,-2.89,Hordley,,4000000074557225
,=== Huntingdonshire (6 položek) ===,,,Huntingdonshire,,
Q598276,Farcet,52.53,-0.23,Huntingdonshire,,4000000074575754; 7000000000001596
Q598947,Haddon,52.517,-0.316,Huntingdonshire,,4000000074575463; 7000000000001635
Q522398,Kimbolton,52.3,-0.38,Huntingdonshire,,4000000074577553; 7000000000001541
,=== Ireland (4 položek) ===,,,Ireland,,
Q205103,Dunnaval,54.045,-6.03278,Ireland,,
Q205103,Dunnaval,54.046303,-6.034129,Ireland,,
,=== Isle of Anglesey (2 položek) ===,,,Isle of Anglesey,,
Q628633,Trearddur,53.283,-4.617,Isle of Anglesey,,4000000074564180
Q628633,Trearddur,53.290713826,-4.642110132,Isle of Anglesey,,4000000074564180
,=== Keenaght (3 položek) ===,,,Keenaght,,
Q482375,Ardgarvan,55.023,-6.929,Keenaght,,
,=== Kemble and Ewen (1 položek) ===,,,Kemble and Ewen,,
Q257034,Kemble,51.67667,-2.01806,Kemble and Ewen,,4000000074569779
,=== Kilmegan (2 položek) ===,,,Kilmegan,,
Q170136,Ballylough,54.267,-5.933,Kilmegan,,
,=== King's Lynn and West Norfolk (2 položek) ===,,,King's Lynn and West Norfolk,,
Q304424,Bawsey,52.7497,0.487661111,King's Lynn and West Norfolk,,4000000074549846; 7000000000007205
,=== Kirkburton (1 položek) ===,,,Kirkburton,,
Q572369,Kirkheaton,53.6552,-1.729,Kirkburton,,4000000074572330
,=== Lakes (1 položek) ===,,,Lakes,,
Q599760,Elterwater,54.4342,-3.03774,Lakes,,4000000074547829
,=== Lancaster (5 položek) ===,,,Lancaster,,
Q604146,Claughton,54.092,-2.668,Lancaster,,4000000074566954; 7000000000004960
Q205905,Lancaster,54.048888888,-2.801388888,Lancaster,,4000000074562398
Q550481,Scotforth,54.027,-2.791,Lancaster,,4000000074561816
,=== Leeds (1 položek) ===,,,Leeds,,
Q39121,Leeds,53.7975,-1.543611111,Leeds,,4000000074572682
,=== Lewes (2 položek) ===,,,Lewes,,
Q531102,Rodmell,50.84,0.01,Lewes,,4000000074568952; 7000000000002750
,=== Lichfield (6 položek) ===,,,Lichfield,,
Q207371,Lichfield,52.6835,-1.82653,Lichfield,,4000000074549374; 7000000000014792
Q593965,Streethay,52.691,-1.791,Lichfield,,4000000074553118; 7000000000186448
,=== Lincoln (1 položek) ===,,,Lincoln,,
Q180057,Lincoln,53.25,-0.55,Lincoln,,4000000074551786
,=== Liphook (2 položek) ===,,,Liphook,,
Q569891,Longmoor,51.0735,-0.870217,Liphook,,
,=== Liverpool (1 položek) ===,,,Liverpool,,
Q24826,Liverpool,53.407222222,-2.991666666,Liverpool,,4000000074559629
,=== Llanfair Pwllgwyngyll (1 položek) ===,,,Llanfair Pwllgwyngyll,,
Q322,Llanfairpwllgwyngyll,53.223333,-4.199444,Llanfair Pwllgwyngyll,,4000000074564779
,=== London (2 položek) ===,,,London,,
Q23311,City of London,51.515555555,-0.093055555,London,GB-LND,4000000074343985; 7000000000011105
,=== London Borough of Barnet (2 položek) ===,,,London Borough of Barnet,,
Q150201,Arkley,51.6477,-0.2311,London Borough of Barnet,,4000000074552691
,=== London Borough of Bromley (8 položek) ===,,,London Borough of Bromley,,
Q123605,Chelsfield,51.3582,0.1278,London Borough of Bromley,,4000000074549228
Q124024,Cudham,51.3193,0.071061111,London Borough of Bromley,,4000000074564240
Q125344,Downe,51.3359,0.0535,London Borough of Bromley,,4000000074564565
Q123229,Farnborough,51.3591,0.0741,London Borough of Bromley,,4000000074549230
Q124012,Green Street Green,51.352,0.08805,London Borough of Bromley,,4000000074548840
Q122322,Keston,51.3625,0.0271,London Borough of Bromley,,4000000074549606
Q122384,Pratt's Bottom,51.3397,0.1128,London Borough of Bromley,,4000000074564239
Q122313,Shortlands,51.3983,0.0039,London Borough of Bromley,,4000000074541230
,=== Long Marton (2 položek) ===,,,Long Marton,,
Q592786,Knock,54.6372,-2.4962,Long Marton,,4000000074547579
,=== Lynesack and Softley (1 položek) ===,,,Lynesack and Softley,,
Q544713,South Side,54.634,-1.839,Lynesack and Softley,,4000000074558217
,=== Maidstone (2 položek) ===,,,Maidstone,,
Q301948,Boxley,51.302,0.543,Maidstone,,4000000074546341; 7000000000018350
,=== Malvern Hills (16 položek) ===,,,Malvern Hills,,
Q582315,Bockleton,52.249847222,-2.597833333,Malvern Hills,,4000000074567485; 7000000000003371
Q521882,Hill Croome,52.062383333,-2.166366666,Malvern Hills,,4000000074580058; 7000000000003020
Q576836,Little Malvern,52.061780555,-2.337130555,Malvern Hills,,4000000074579005; 7000000000003275
Q592529,Madresfield,52.124347222,-2.287322222,Malvern Hills,,4000000074579706; 7000000000003606
Q589217,Malvern Wells,52.078477777,-2.332355555,Malvern Hills,,4000000074579116; 7000000000003274
,=== Manchester (1 položek) ===,,,Manchester,,
Q18125,Manchester,53.466666666,-2.233333333,Manchester,,4000000074567025
,=== Mapledurwell and Up Nately (2 položek) ===,,,Mapledurwell and Up Nately,,
Q582478,Mapledurwell,51.26,-1.01,Mapledurwell and Up Nately,,4000000074569706
,=== Medway (1 položek) ===,,,Medway,,
Q523651,St Mary Hoo,51.4667,0.6083,Medway,,4000000074544905
,=== Melton (2 položek) ===,,,Melton,,
Q264633,Freeby,52.7727,-0.8099,Melton,,4000000074560472; 7000000000023247
,=== Mendip (2 položek) ===,,,Mendip,,
Q212283,Wells,51.209444444,-2.645,Mendip,,4000000074551521; 7000000000010526
,=== Mid Suffolk (4 položek) ===,,,Mid Suffolk,,
Q239776,Hoxne,52.35,1.2,Mid Suffolk,,4000000074545964; 7000000000015620
Q603510,Wilby,52.301,1.286,Mid Suffolk,,4000000074544571; 7000000000015502
,=== Mid Ulster (2 položek) ===,,,Mid Ulster,,
Q574880,Ballymaguigan,54.7399,-6.52481,Mid Ulster,,
Q619278,Bellaghy,54.808,-6.519,Mid Ulster,,
,=== Middlesbrough (1 položek) ===,,,Middlesbrough,,
Q572027,Hemlington,54.524,-1.239,Middlesbrough,,4000000074558564
,=== Millington and Rostherne (1 položek) ===,,,Millington and Rostherne,,
Q545862,Rostherne,53.35,-2.38333,Millington and Rostherne,,4000000074555893
,=== Mortehoe (1 položek) ===,,,Mortehoe,,
Q542671,Woolacombe,51.172,-4.207,Mortehoe,,4000000074575892
,=== Muker (1 položek) ===,,,Muker,,
Q258304,Satron,54.3753,-2.09356,Muker,,4000000074564696
,=== Muncaster (3 položek) ===,,,Muncaster,,
Q173933,Ravenglass,54.354,-3.411,Muncaster,,4000000074560827
,=== New Forest (6 položek) ===,,,New Forest,,
Q186954,Beaulieu,50.818333333,-1.451944444,New Forest,,4000000074565328; 7000000000017562
,=== Newark and Sherwood (10 položek) ===,,,Newark and Sherwood,,
Q591927,Blidworth,53.098,-1.1165,Newark and Sherwood,,4000000074575133; 7000000000044578
Q595930,Kirton,53.22,-0.97,Newark and Sherwood,,4000000074576280; 7000000000008085
Q601196,Sutton on Trent,53.18,-0.82,Newark and Sherwood,,4000000074576558; 7000000000007814
,=== Newport (1 položek) ===,,,Newport,,
Q101254,Newport,51.588611111,-2.997777777,Newport,,4000000074556782
,"=== Newry, Mourne and Down (4 položek) ===",,,"Newry, Mourne and Down",,
Q170126,Drumlough,54.219,-6.179,"Newry, Mourne and Down",,
Q269980,Newry,54.175555555,-6.349166666,"Newry, Mourne and Down",,
,=== North Cave (2 položek) ===,,,North Cave,,
Q583146,Everthorpe,53.7755,-0.624051,North Cave,,4000000074543629
,=== North Devon (16 položek) ===,,,North Devon,,
Q592492,Challacombe,51.153,-3.869,North Devon,,4000000074574654; 7000000000023031
Q519750,Mortehoe,51.183333333,-4.2,North Devon,,4000000074577457; 7000000000023101
Q519750,Mortehoe,51.17438,-4.19287,North Devon,,4000000074577457; 7000000000023101
Q543013,North Molton,51.0583,-3.80611,North Devon,,4000000074576047; 7000000000023030
,=== North East Derbyshire (4 položek) ===,,,North East Derbyshire,,
Q516340,Tupton,53.190511111,-1.407288888,North East Derbyshire,,4000000074551638; 7000000000013651
,=== North Hertfordshire (4 položek) ===,,,North Hertfordshire,,
Q602057,Kelshall,52.0103,-0.064559,North Hertfordshire,,4000000074568823; 7000000000003985
,=== North Kesteven (2 položek) ===,,,North Kesteven,,
Q628445,Billinghay,53.0792,-0.28109,North Kesteven,,4000000074551768; 7000000000005394
,=== North Lincolnshire (2 položek) ===,,,North Lincolnshire,,
Q602355,Barnetby le Wold,53.5779,-0.4071,North Lincolnshire,,4000000074568934; 7000000000004114
,=== North Norfolk (4 položek) ===,,,North Norfolk,,
Q601728,Mundesley,52.876,1.438,North Norfolk,,4000000074542275; 7000000000006614
,=== North Northamptonshire (10 položek) ===,,,North Northamptonshire,,
Q589867,Finedon,52.334,-0.6597,North Northamptonshire,,4000000074572512; 7000000000007402
Q594057,Mears Ashby,52.29335,-0.77205,North Northamptonshire,,4000000074572842; 7000000000007370
Q537555,Stanwick,52.3286,-0.5631,North Northamptonshire,,4000000074572183; 7000000000041578
Q517510,Sutton Bassett,52.5053,-0.8657,North Northamptonshire,,4000000074571926; 7000000000007642
,=== North Somerset (2 položek) ===,,,North Somerset,,
Q594293,Kenn,51.4174,-2.8402,North Somerset,,4000000074559748; 7000000000000867
,=== North Warwickshire (4 položek) ===,,,North Warwickshire,,
Q519687,Kingsbury,52.561430555,-1.69165,North Warwickshire,,4000000074574312; 7000000000010128
,=== North West Leicestershire (4 položek) ===,,,North West Leicestershire,,
Q547166,Castle Donington,52.844422222,-1.337694444,North West Leicestershire,,4000000074551250; 7000000000023637
,=== North Yorkshire (8 položek) ===,,,North Yorkshire,,
Q593871,Beal,53.723,-1.194,North Yorkshire,,4000000074544746; 7000000000021033
Q494155,Dalton,54.471019444,-1.824372222,North Yorkshire,,4000000074556345; 7000000000022012
Q599130,East Hauxwell,54.339,-1.74,North Yorkshire,,4000000074547552; 7000000000021907
,=== Northern Ireland (48 položek) ===,,,Northern Ireland,,
Q482369,Ardmore,54.956,-7.279,Northern Ireland,,
Q574851,Artikelly,55.0667,-6.93333,Northern Ireland,,
Q574851,Artikelly,55.070101,-6.933036,Northern Ireland,,
Q574845,Ballerin,55.0198,-6.738,Northern Ireland,,
Q170136,Ballylough,54.267,-5.933,Northern Ireland,,
Q205107,Burren,54.132,-6.264,Northern Ireland,,
Q482373,Derrynaflaw,54.927,-6.965,Northern Ireland,,
Q482374,Desertmartin,54.7667,-6.68333,Northern Ireland,,
Q135516,Edenderry,54.541,-5.962,Northern Ireland,,
Q482371,Glenone,54.8722,-6.48583,Northern Ireland,,
Q205095,Killinchy,54.4667,-5.66667,Northern Ireland,,
Q205099,Killowen,54.0667,-6.18333,Northern Ireland,,
Q232805,Kircubbin,54.4833,-5.53333,Northern Ireland,,
Q482372,Lettershendoney,54.98,-7.217,Northern Ireland,,
Q232597,Lurganare,54.23,-6.352,Northern Ireland,,
Q482367,Macosquin,55.1,-6.707,Northern Ireland,,
Q116615,Magheraconluce,54.427916,-6.012732,Northern Ireland,,
Q116615,Magheraconluce,54.427,-6.008,Northern Ireland,,
Q116762,Mayobridge,54.1667,-6.23333,Northern Ireland,,
Q170281,Mazetown,54.488,-6.123,Northern Ireland,,
Q116420,Moneyslane,54.288,-6.088,Northern Ireland,,
Q116420,Moneyslane,54.285606,-6.076439,Northern Ireland,,
Q135441,Monteith,54.281,-6.17,Northern Ireland,,
Q619186,Newbuildings,54.958,-7.355,Northern Ireland,,
Q170529,Poyntzpass,54.2887,-6.37204,Northern Ireland,,
Q135043,Ravernet,54.4667,-6.05,Northern Ireland,,
Q576454,Sion Mills,54.7854,-7.47427,Northern Ireland,,
Q135045,Tullylish,54.374,-6.345,Northern Ireland,,
,=== Northumberland (10 položek) ===,,,Northumberland,,
Q451687,Bellingham,55.145,-2.254,Northumberland,,4000000074548821; 7000000000019398
Q122953,Corbridge,54.975,-2.017,Northumberland,,4000000074549938; 7000000000019257
Q583753,North Sunderland,55.577,-1.66,Northumberland,,4000000074559606; 7000000000019301
Q578750,Rothbury,55.3097,-1.9109,Northumberland,,4000000074557733; 7000000000019350
,=== Norwich (1 položek) ===,,,Norwich,,
Q130191,Norwich,52.628611111,1.292777777,Norwich,,4000000074573264
,=== Old Newton with Dagworth (1 položek) ===,,,Old Newton with Dagworth,,
Q576519,Old Newton,52.222938888,1.001830555,Old Newton with Dagworth,,4000000074545107
,=== Old Stratford (3 položek) ===,,,Old Stratford,,
Q592420,Passenham,52.048,-0.864,Old Stratford,,4000000074545468
,=== Outer Hebrides (2 položek) ===,,,Outer Hebrides,,
Q151589,Ness,58.47,-6.25,Outer Hebrides,,4000000074542534
,=== Over Wyresdale (1 položek) ===,,,Over Wyresdale,,
Q306453,Abbeystead,53.983,-2.667,Over Wyresdale,,4000000074565952
,=== Oxford (1 položek) ===,,,Oxford,,
Q34217,Oxford,51.751944444,-1.257777777,Oxford,GB-OXF,4000000074563668
,=== Pembrokeshire (4 položek) ===,,,Pembrokeshire,,
Q519215,Johnston,51.754,-4.9976,Pembrokeshire,,4000000074575342; 7000000000024032
,=== Pendle (2 položek) ===,,,Pendle,,
Q303243,Barrowford,53.851,-2.221,Pendle,,4000000074551054; 7000000000004595
,=== Perth and Kinross (4 položek) ===,,,Perth and Kinross,,
Q459768,Kenmore,56.5852,-3.9988,Perth and Kinross,,4000000074549413
Q124640,Kinloch Rannoch,56.6999,-4.18675,Perth and Kinross,,4000000074549044
Q203000,Perth,56.395833333,-3.433333333,Perth and Kinross,,4000000074541547
,=== Peter Tavy (1 položek) ===,,,Peter Tavy,,
Q603435,Cudlipptown,50.5922,-4.0918,Peter Tavy,,4000000074556582
,=== Powys (2 položek) ===,,,Powys,,
Q425944,Adfa,52.5994,-3.38911,Powys,,4000000074554256
,=== Preston (1 položek) ===,,,Preston,,
Q184090,Preston,53.759444444,-2.698055555,Preston,,4000000074574696
,=== Redcar and Cleveland (1 položek) ===,,,Redcar and Cleveland,,
Q303161,Boosbeck,54.5423,-0.98072,Redcar and Cleveland,,4000000074576664
,=== Rhondda Cynon Taf (8 položek) ===,,,Rhondda Cynon Taf,,
Q258665,Rhigos,51.7333,-3.56667,Rhondda Cynon Taf,,4000000074565231; 7000000000006262
Q478218,Treforest,51.5878,-3.3221,Rhondda Cynon Taf,,4000000074555289
Q302872,Treorchy,51.6594,-3.5055,Rhondda Cynon Taf,,4000000074551659; 7000000000006294
,=== Ribble Valley (4 položek) ===,,,Ribble Valley,,
Q518681,Paythorne,53.963,-2.261,Ribble Valley,,4000000074563393; 7000000000004721
,=== Rotherham (2 položek) ===,,,Rotherham,,
Q585941,Wentworth,53.482,-1.419,Rotherham,,4000000074570290; 7000000000009221
,=== Rugby (2 položek) ===,,,Rugby,,
Q546248,Princethorpe,52.326638888,-1.414488888,Rugby,,4000000074557665; 7000000000009867
,=== Runnymede (1 položek) ===,,,Runnymede,,
Q262388,New Haw,51.358,-0.4888,Runnymede,,4000000074554126
,=== Rushcliffe (2 položek) ===,,,Rushcliffe,,
Q571232,Saxondale,52.952,-0.986,Rushcliffe,,4000000074562294; 7000000000007802
,=== Salford (1 položek) ===,,,Salford,,
Q47952,Salford,53.482777777,-2.293055555,Salford,,4000000074572014
,=== Saltash (2 položek) ===,,,Saltash,,
Q570713,Trematon,50.415,-4.262222222,Saltash,,4000000074555550
,=== Scarborough (4 položek) ===,,,Scarborough,,
Q600626,Harwood Dale,54.3492,-0.5212,Scarborough,,4000000074556741; 7000000000021112
Q260443,Sneaton,54.4575,-0.6228,Scarborough,,4000000074574203; 7000000000021224
,=== Sedgemoor (4 položek) ===,,,Sedgemoor,,
Q583056,Catcott,51.15,-2.865,Sedgemoor,,4000000074576142; 7000000000010580
,=== Sevenoaks (2 položek) ===,,,Sevenoaks,,
Q578209,Chiddingstone,51.186088888,0.14845,Sevenoaks,,4000000074544801; 7000000000018453
,=== Sheffield (2 položek) ===,,,Sheffield,,
Q42448,Sheffield,53.380833333,-1.470277777,Sheffield,,4000000074569935
,=== Sheriffhales (1 položek) ===,,,Sheriffhales,,
Q578880,Chadwell,52.7284,-2.3173,Sheriffhales,,4000000074562822
,=== Shetland Islands (1 položek) ===,,,Shetland Islands,,
Q598075,Skaw,60.82508,-0.79134,Shetland Islands,,4000000074541668
,=== Shropshire (5 položek) ===,,,Shropshire,,
Q590571,Claverley,52.538,-2.306,Shropshire,,4000000074568093; 7000000000009317
Q578454,Donington,52.643,-2.285,Shropshire,,7000000000009328
Q578185,Prees,52.897,-2.666,Shropshire,,4000000074561083; 7000000000009599
,=== Slip End (2 položek) ===,,,Slip End,,
Q547343,Aley Green,51.854,-0.452,Slip End,,4000000074550968
,=== South Cambridgeshire (1 položek) ===,,,South Cambridgeshire,,
Q401649,Willingham,52.32,0.07,South Cambridgeshire,,7000000000001396
,=== South Derbyshire (2 položek) ===,,,South Derbyshire,,
Q603932,Coton in the Elms,52.735277777,-1.640555555,South Derbyshire,,4000000074551602; 7000000000013448
,=== South Gloucestershire (10 položek) ===,,,South Gloucestershire,,
Q599688,Falfield,51.637,-2.459,South Gloucestershire,,4000000074570129; 7000000000000856
Q431822,Frampton Cotterell,51.54,-2.48,South Gloucestershire,,4000000074570118; 7000000000000727
Q577385,Rangeworthy,51.5667,-2.45,South Gloucestershire,,4000000074570817; 7000000000000725
Q530885,Stoke Gifford,51.517,-2.548,South Gloucestershire,,4000000074570467; 7000000000186449
,=== South Kesteven (2 položek) ===,,,South Kesteven,,
Q594132,Carlby,52.713,-0.446,South Kesteven,,4000000074549868; 7000000000005655
,=== South Norfolk (6 položek) ===,,,South Norfolk,,
Q181821,Hethersett,52.598269444,1.183269444,South Norfolk,,4000000074573548; 7000000000006664
,=== South Oxfordshire (4 položek) ===,,,South Oxfordshire,,
Q507607,Ipsden,51.566,-1.083,South Oxfordshire,,4000000074550265; 7000000000008345
,=== South Somerset (10 položek) ===,,,South Somerset,,
Q585552,Chillington,50.8958,-2.8695,South Somerset,,4000000074575564; 7000000000010264
Q585129,Chilton Cantelo,51.0003,-2.607,South Somerset,,4000000074550381; 7000000000010248
Q593655,East Coker,50.9101,-2.6485,South Somerset,,4000000074551131; 7000000000010226
Q430187,Hardington Mandeville,50.9009,-2.691,South Somerset,,4000000074551136; 7000000000010216
,=== South Staffordshire (8 položek) ===,,,South Staffordshire,,
Q260259,Huntington,52.715,-2.042,South Staffordshire,,4000000074560828; 7000000000014905
Q591742,Lower Penn,52.5551,-2.1781,South Staffordshire,,4000000074568099; 7000000000015186
,=== Southend-on-Sea (1 položek) ===,,,Southend-on-Sea,,
Q203995,Southend-on-Sea,51.53789,0.71377,Southend-on-Sea,,4000000074548096
,=== Speldhurst (2 položek) ===,,,Speldhurst,,
Q569969,Stone Cross,51.1297,0.1743,Speldhurst,,4000000074543706
,=== St Albans (1 položek) ===,,,St Albans,,
Q6226,St Albans,51.755,-0.336,St Albans,,4000000074550620
,=== St Edmundsbury (5 položek) ===,,,St Edmundsbury,,
Q549710,Ickworth,52.217,0.671,St Edmundsbury,,7000000000015816
Q507516,Withersfield,52.106,0.418,St Edmundsbury,,4000000074559595; 7000000000015895
,=== St Ives (2 položek) ===,,,St Ives,,
Q431799,Lelant,50.184,-5.44,St Ives,,4000000074575091
,=== St Minver Lowlands (1 položek) ===,,,St Minver Lowlands,,
Q534730,Rock,50.5437,-4.9182,St Minver Lowlands,,4000000074338534
,=== St. Mary's (1 položek) ===,,,St. Mary's,,
Q601396,Old Town,49.9131,-6.29944,St. Mary's,,4000000074555187
,=== Staffordshire Moorlands (4 položek) ===,,,Staffordshire Moorlands,,
Q589577,Heaton,53.1603,-2.07372,Staffordshire Moorlands,,4000000074576356; 7000000000015082
Q429209,Quarnford,53.202777777,-1.963055555,Staffordshire Moorlands,,7000000000014997
,=== Stanhope (2 položek) ===,,,Stanhope,,
Q428342,Stanhope,54.7471,-2.006,Stanhope,,4000000074546327
,=== Stanley (1 položek) ===,,,Stanley,,
Q601327,The Middles,54.854,-1.67,Stanley,,4000000074577636
,=== Stirling (1 položek) ===,,,Stirling,,
Q182923,Stirling,56.1166,-3.9369,Stirling,,4000000074551019
,=== Stixwould and Woodhall (1 položek) ===,,,Stixwould and Woodhall,,
Q254284,Old Woodhall,53.1942,-0.175505,Stixwould and Woodhall,,
,=== Stockport (1 položek) ===,,,Stockport,,
Q18636,Hazel Grove,53.3754,-2.1119,Stockport,,4000000074545284
,=== Stoke-by-Nayland (2 položek) ===,,,Stoke-by-Nayland,,
Q127517,Withermarsh Green,51.995,0.927,Stoke-by-Nayland,,
,=== Stratford-on-Avon (9 položek) ===,,,Stratford-on-Avon,,
Q592896,Compton Verney,52.1735,-1.54519,Stratford-on-Avon,,7000000000009931
Q601448,Gaydon,52.183611111,-1.47,Stratford-on-Avon,,4000000074555136; 7000000000009945
Q591134,Wixford,52.187,-1.872,Stratford-on-Avon,,4000000074544358; 7000000000010158
,=== Sunderland (2 položek) ===,,,Sunderland,,
Q188304,Sunderland,54.9,-1.380277777,Sunderland,,4000000074553839
Q588825,Warden Law,54.843122222,-1.428677777,Sunderland,,7000000000009732
,=== Sutton upon Tern (1 položek) ===,,,Sutton upon Tern,,
Q601645,Ternhill,52.8833,-2.55,Sutton upon Tern,,4000000074561474
,=== Swale (6 položek) ===,,,Swale,,
Q301744,Badlesmere,51.259,0.885,Swale,,7000000000018192
Q595600,Bredgar,51.299997222,0.7,Swale,,4000000074546973; 7000000000018282
Q600715,Hernhill,51.308,0.9615,Swale,,4000000074566821; 7000000000018175
Q594200,Tonge,51.351944444,0.780833333,Swale,,7000000000018271
,=== Swansea (1 položek) ===,,,Swansea,,
Q23051,Swansea,51.616666666,-3.95,Swansea,,4000000074548710
,=== Tatworth and Forton (1 položek) ===,,,Tatworth and Forton,,
Q601181,Tatworth,50.845,-2.9601,Tatworth and Forton,,4000000074576395
,=== Teignbridge (4 položek) ===,,,Teignbridge,,
Q596082,Dunchideock,50.68,-3.58,Teignbridge,,4000000074314794; 7000000000023148
,=== Telford and Wrekin (1 položek) ===,,,Telford and Wrekin,,
Q264693,Waters Upton,52.7733,-2.54972,Telford and Wrekin,,4000000074560196
,=== Test Valley (4 položek) ===,,,Test Valley,,
Q547492,Stockbridge,51.114002777,-1.490647222,Test Valley,,4000000074567663; 7000000000017770
,=== Tewkesbury (8 položek) ===,,,Tewkesbury,,
Q548268,Brockworth,51.85,-2.15,Tewkesbury,,4000000074576718; 7000000000020373
Q573071,Dumbleton,52.0224,-1.97809,Tewkesbury,,4000000074563388; 7000000000020336
Q256243,Maisemore,51.889,-2.271,Tewkesbury,,4000000074577909; 7000000000020505
,=== Three Rivers (2 položek) ===,,,Three Rivers,,
Q9666,Croxley Green,51.647,-0.445,Three Rivers,,4000000074562752; 7000000000003821
,=== Torridge (4 položek) ===,,,Torridge,,
Q519234,Welcombe,50.933333333,-4.516666666,Torridge,,4000000074575644; 7000000000023145
,=== Trimdon (1 položek) ===,,,Trimdon,,
Q573041,Trimdon Colliery,54.718333333,-1.411388888,Trimdon,,
,=== Trimdon Foundry (1 položek) ===,,,Trimdon Foundry,,
Q573041,Trimdon Colliery,54.718333333,-1.411388888,Trimdon Foundry,,
,=== Tritlington and West Chevington (2 položek) ===,,,Tritlington and West Chevington,,
Q547475,Causey Park Bridge,55.244,-1.711,Tritlington and West Chevington,,4000000074330765
,=== Uffculme (1 položek) ===,,,Uffculme,,
Q585075,Appledore,50.9206,-3.3302,Uffculme,,4000000074576686
,=== Upham (1 položek) ===,,,Upham,,
Q594875,Lower Upham,50.973,-1.2556,Upham,,4000000074561916
,=== Uttlesford (52 položek) ===,,,Uttlesford,,
Q125781,Chrishall,52.032,0.109,Uttlesford,,4000000074569522; 7000000000020134
Q158921,Clavering,51.965,0.145,Uttlesford,,4000000074571272; 7000000000020138
Q158917,Elmdon,52.034561111,0.134288888,Uttlesford,,4000000074569520; 7000000000020131
Q158964,Great Easton,51.904,0.333,Uttlesford,,4000000074559268; 7000000000020002
Q126573,Great Hallingbury,51.855277777,0.194444444,Uttlesford,,4000000074558908; 7000000000020051
Q126588,Lindsell,51.9167,0.383333,Uttlesford,,4000000074559264; 7000000000019998
Q126525,Little Bardfield,51.950613888,0.414047222,Uttlesford,,4000000074559573; 7000000000019999
Q158962,Littlebury,52.033,0.217,Uttlesford,,4000000074555184; 7000000000020116
Q126579,Stansted Mountfitchet,51.898,0.198,Uttlesford,,4000000074559526; 7000000000020046
Q125804,Stebbing,51.8956,0.4095,Uttlesford,,4000000074558899; 7000000000019997
Q125800,Tilty,51.9131,0.32528,Uttlesford,,4000000074559269; 7000000000020039
,=== Wakefield (1 položek) ===,,,Wakefield,,
Q216638,Wakefield,53.6825,-1.4975,Wakefield,,4000000074573196
,=== Wark (1 položek) ===,,,Wark,,
Q526502,Stonehaugh,55.083,-2.323,Wark,,4000000074548818
,=== West Berkshire (4 položek) ===,,,West Berkshire,,
Q258642,Aldermaston,51.383,-1.15,West Berkshire,,4000000074571102; 7000000000000453
Q521984,Ashampstead,51.49,-1.19,West Berkshire,,4000000074552161; 7000000000000419
,=== West Hallam (1 položek) ===,,,West Hallam,,
Q593594,West Hallam,52.97,-1.36,West Hallam,,4000000074551994
,=== West Lindsey (4 položek) ===,,,West Lindsey,,
Q592797,Hackthorn,53.3288,-0.50765,West Lindsey,,4000000074574879; 7000000000005519
Q574397,Torksey,53.2986,-0.745252,West Lindsey,,4000000074575720; 7000000000005912
,=== West Lothian (4 položek) ===,,,West Lothian,,
Q4114,Dechmont,55.9214,-3.53665,West Lothian,,4000000074559812
Q3980,Kirknewton,55.887658333,-3.419194444,West Lothian,,4000000074558319
Q4115,Mid Calder,55.8918,-3.481,West Lothian,,4000000074558695
Q4112,Stoneyburn,55.848,-3.631,West Lothian,,4000000074556460
,=== West Northamptonshire (12 položek) ===,,,West Northamptonshire,,
Q603635,Flore,52.2388,-1.0569,West Northamptonshire,,4000000074573536; 7000000000007582
Q570955,Hollowell,52.3373,-0.9961,West Northamptonshire,,4000000074571907; 7000000000007574
Q584511,Nether Heyford,52.220833333,-1.036111111,West Northamptonshire,,4000000074573230; 7000000000007533
Q596526,Stoke Bruerne,52.1424,-0.915688888,West Northamptonshire,,4000000074545497; 7000000000007337
Q302389,Sulgrave,52.103,-1.184,West Northamptonshire,,4000000074545727; 7000000000007658
,=== West Oxfordshire (2 položek) ===,,,West Oxfordshire,,
Q600206,Freeland,51.814,-1.404,West Oxfordshire,,4000000074566921; 7000000000008629
,=== Westmorland and Furness (6 položek) ===,,,Westmorland and Furness,,
Q535845,Colton,54.266,-3.052,Westmorland and Furness,,4000000074560591; 7000000000012929
Q570343,Orton,54.468419444,-2.583722222,Westmorland and Furness,,4000000074546093; 7000000000012893
,=== Weymouth (3 položek) ===,,,Weymouth,,
Q537875,Preston,50.65,-2.41667,Weymouth,,4000000074548536
Q568114,Wyke Regis,50.592,-2.475,Weymouth,,4000000074553419
,=== Whitehill (2 položek) ===,,,Whitehill,,
Q569891,Longmoor,51.0735,-0.870217,Whitehill,,
,=== Wiltshire (22 položek) ===,,,Wiltshire,,
Q302598,Chilton Foliat,51.434,-1.539,Wiltshire,,4000000074566172; 7000000000017263
Q17565,Kingston Deverill,51.133,-2.22,Wiltshire,,4000000074548513; 7000000000017072
Q251961,Limpley Stoke,51.3467,-2.3165,Wiltshire,,4000000074568723; 7000000000017224
Q581429,Little Bedwyn,51.391,-1.582,Wiltshire,,4000000074565845; 7000000000017241
Q578545,Lydiard Tregoze,51.55,-1.85,Wiltshire,,7000000000017173
Q550503,Ogbourne St George,51.468,-1.713,Wiltshire,,4000000074565854; 7000000000016865
Q160642,Salisbury,51.074,-1.7936,Wiltshire,,4000000074543263; 7000000000044142
Q512078,Semington,51.343,-2.151,Wiltshire,,4000000074570068; 7000000000017049
Q583272,Woodborough,51.338,-1.847,Wiltshire,,4000000074564256; 7000000000016949
,=== Winchester (7 položek) ===,,,Winchester,,
Q255750,Upham,50.978661111,-1.242819444,Winchester,,4000000074563082; 7000000000017532
Q518080,West Meon,51.011919444,-1.087730555,Winchester,,4000000074561910; 7000000000017524
Q172157,Winchester,51.063333333,-1.308611111,Winchester,,4000000074565988
,=== Wirral (2 položek) ===,,,Wirral,,
Q604423,Caldy,53.359,-3.164,Wirral,,4000000074548305
Q122353,Greasby,53.373,-3.1233,Wirral,,4000000074559947
,=== Wokingham (2 položek) ===,,,Wokingham,,
Q598948,Wargrave,51.499,-0.867,Wokingham,,4000000074567253; 7000000000000350
,=== Worcestershire (1 položek) ===,,,Worcestershire,,
Q545997,Bowling Green,52.156977777,-2.270694444,Worcestershire,,
,=== Wychavon (18 položek) ===,,,Wychavon,,
Q180356,Broadway,52.04,-1.86,Wychavon,,4000000074565003; 7000000000002903
Q582357,Defford,52.087347222,-2.119102777,Wychavon,,4000000074578291; 7000000000003049
Q303559,Honeybourne,52.095,-1.831,Wychavon,,4000000074565304; 7000000000002906
Q596641,Upton Warren,52.305,-2.103,Wychavon,,4000000074567694; 7000000000003176
Q549572,Wyre Piddle,52.1245,-2.0509,Wychavon,,4000000074578402; 7000000000002946
,=== Wye with Hinxhill (1 položek) ===,,,Wye with Hinxhill,,
Q590063,Wye,51.1815,0.9413,Wye with Hinxhill,,4000000074564853
,=== Wyre (2 položek) ===,,,Wyre,,
Q600901,Winmarleigh,53.916666666,-2.816666666,Wyre,,4000000074330832; 7000000000004975
,=== Yarnfield and Cold Meece (1 položek) ===,,,Yarnfield and Cold Meece,,
Q593913,Yarnfield,52.891,-2.201,Yarnfield and Cold Meece,,4000000074561268
